networks:

  edge_net:
    driver: bridge
    name: edge_net


services:

  aco-west-europe:
    image: beamcampus/swai_aco:latest
    container_name: aco-west-europe
    restart: always
    networks:
    - edge_net
    environment:
    - SWAI_EDGE_API_KEY="aco-west-europe"
    - SWAI_EDGE_LAT=48.8566
    - SWAI_EDGE_LON=2.3522

  aco-central-europe:
    image: beamcampus/swai_aco:latest
    container_name: aco-central-europe
    restart: always
    networks:
    - edge_net
    environment:
    - SWAI_EDGE_API_KEY="aco-central-europe"
    - SWAI_EDGE_LAT=52.5200
    - SWAI_EDGE_LON=13.4050

  aco-north-europe:
    image: beamcampus/swai_aco:latest
    container_name: aco-north-europe
    restart: always
    networks:
    - edge_net
    environment:
    - SWAI_EDGE_API_KEY="aco-north-europe"
    - SWAI_EDGE_LAT=59.3293
    - SWAI_EDGE_LON=18.0686

  aco-east-europe:
    image: beamcampus/swai_aco:latest
    container_name: aco-east-europe
    restart: always
    networks:
    - edge_net
    environment:
    - SWAI_EDGE_API_KEY="aco-east-europe"
    - SWAI_EDGE_LAT=50.4501
    - SWAI_EDGE_LON=30.5234

  aco-south-europe:
    image: beamcampus/swai_aco:latest
    container_name: aco-south-europe
    restart: always
    networks:
    - edge_net
    environment:
    - SWAI_EDGE_API_KEY="aco-south-europe"
    - SWAI_EDGE_LAT=41.9028
    - SWAI_EDGE_LON=12.4964

  aco-ukraine:
    image: beamcampus/swai_aco:latest
    container_name: aco-ukraine
    restart: always
    networks:
    - edge_net
    environment:
    - SWAI_EDGE_API_KEY="aco-ukraine"
    - SWAI_EDGE_LAT=48.3794
    - SWAI_EDGE_LON=31.1656

  aco-belarus:
    image: beamcampus/swai_aco:latest
    container_name: aco-belarus
    restart: always
    networks:
    - edge_net
    environment:
    - SWAI_EDGE_API_KEY="aco-belarus"
    - SWAI_EDGE_LAT=53.7098
    - SWAI_EDGE_LON=27.9534

  aco-argentina:
    image: beamcampus/swai_aco:latest
    container_name: aco-argentina
    restart: always
    networks:
      - edge_net
    environment:      
      - SWAI_EDGE_API_KEY="aco-argentina"
      - SWAI_EDGE_LAT=-38.4161
      - SWAI_EDGE_LON=-63.6167


  aco-chile:
    image: beamcampus/swai_aco:latest
    container_name: aco-chile
    restart: always
    networks:
      - edge_net
    environment:      
      - SWAI_EDGE_API_KEY="aco-chile"
      - SWAI_EDGE_LAT=-35.6751
      - SWAI_EDGE_LON=-71.543

  aco-italy-rome:
    image: beamcampus/swai_aco:latest
    container_name: aco-italy-rome
    restart: always
    networks:
    - edge_net
    environment:
    - SWAI_EDGE_API_KEY="aco-italy-rome"
    - SWAI_EDGE_LAT=41.9028
    - SWAI_EDGE_LON=12.4964
    

  aco-france:
    image: beamcampus/swai_aco:latest
    container_name: aco-france
    restart: always
    networks:
    - edge_net
    environment:
    - SWAI_EDGE_API_KEY="aco-france"
    - SWAI_EDGE_LAT=46.6034
    - SWAI_EDGE_LON=1.8883

  aco-usa-california:
    image: beamcampus/swai_aco:latest
    container_name: aco-usa-california
    restart: always
    networks:
      - edge_net
    environment:      
      - SWAI_EDGE_API_KEY="aco-usa-california"
      - SWAI_EDGE_LAT=36.7783
      - SWAI_EDGE_LON=-119.4179

  aco-usa-texas:
    image: beamcampus/swai_aco:latest
    container_name: aco-usa-texas
    restart: always
    networks:
      - edge_net
    environment:      
      - SWAI_EDGE_API_KEY="aco-usa-texas"
      - SWAI_EDGE_LAT=31.9686
      - SWAI_EDGE_LON=-99.9018

  aco-belgium:
    image: beamcampus/swai_aco:latest
    container_name: aco-belgium
    restart: always
    networks:
    - edge_net
    environment:
    - SWAI_EDGE_API_KEY="aco-belgium"
    - SWAI_EDGE_LAT=50.5039
    - SWAI_EDGE_LON=4.4699

  aco-switzerland:
    image: beamcampus/swai_aco:latest
    container_name: aco-switzerland
    restart: always
    networks:
    - edge_net
    environment:
    - SWAI_EDGE_API_KEY="aco-switzerland"
    - SWAI_EDGE_LAT=46.8182
    - SWAI_EDGE_LON=8.2275
    
  aco-sweden:
    image: beamcampus/swai_aco:latest
    container_name: aco-sweden
    restart: always
    networks:
    - edge_net
    environment:
    - SWAI_EDGE_API_KEY="aco-sweden"
    - SWAI_EDGE_LAT=60.1282
    - SWAI_EDGE_LON=18.6435

  aco-greenland:
    image: beamcampus/swai_aco:latest
    container_name: aco-greenland
    restart: always
    networks:
    - edge_net
    environment:
    - SWAI_EDGE_API_KEY="aco-greenland"
    - SWAI_EDGE_LAT=71.7069
    - SWAI_EDGE_LON=-42.6043
  
  aco-germany:
    image: beamcampus/swai_aco:latest
    container_name: aco-germany
    restart: always
    networks:
    - edge_net
    environment:
    - SWAI_EDGE_API_KEY="aco-germany"
    - SWAI_EDGE_LAT=51.1657
    - SWAI_EDGE_LON=10.4515


